{
"type": "FeatureCollection",
"name": "Hotels",
"crs": { "type": "name", "properties": { "name": "urn:ogc:def:crs:OGC:1.3:CRS84" } },
"features": [
{ "type": "Feature", "properties": { "id": "1", "Name": "Hotel Mount View" }, "geometry": { "type": "Point", "coordinates": [ 79.4992727, 29.2355948, 0.0 ] } },
{ "type": "Feature", "properties": { "id": "2", "Name": "The Hosteller Nainital" }, "geometry": { "type": "Point", "coordinates": [ 79.4558342, 29.3832895, 0.0 ] } },
{ "type": "Feature", "properties": { "id": "3", "Name": "Lushtreebackpacker Hostel and cafe, Mukteshwar" }, "geometry": { "type": "Point", "coordinates": [ 79.6727179, 29.4139022, 0.0 ] } },
{ "type": "Feature", "properties": { "id": "4", "Name": "Sweet Home Sunset Resort" }, "geometry": { "type": "Point", "coordinates": [ 79.4512653, 29.3525511, 0.0 ] } },
{ "type": "Feature", "properties": { "id": "5", "Name": "Shiva Solace by TOFOH" }, "geometry": { "type": "Point", "coordinates": [ 79.5560982, 29.3515622, 0.0 ] } },
{ "type": "Feature", "properties": { "id": "6", "Name": "The Lake Paradise Inn" }, "geometry": { "type": "Point", "coordinates": [ 79.5570597, 29.345801, 0.0 ] } }
]
}
