{
"type": "FeatureCollection",
"name": "Tourist_place",
"crs": { "type": "name", "properties": { "name": "urn:ogc:def:crs:OGC:1.3:CRS84" } },
"features": [
{ "type": "Feature", "properties": { "id": null, "Name": "Harshita Waterfall" }, "geometry": { "type": "Point", "coordinates": [ 79.4578692, 29.4084855, 0.0 ] } },
{ "type": "Feature", "properties": { "id": null, "Name": "Dheeraj Waterfall" }, "geometry": { "type": "Point", "coordinates": [ 79.4540068, 29.4176818, 0.0 ] } },
{ "type": "Feature", "properties": { "id": null, "Name": "Sattal View Point" }, "geometry": { "type": "Point", "coordinates": [ 79.5272871, 29.3546726, 0.0 ] } },
{ "type": "Feature", "properties": { "id": null, "Name": "Sat Tal" }, "geometry": { "type": "Point", "coordinates": [ 79.5292323, 29.3511795, 0.0 ] } },
{ "type": "Feature", "properties": { "id": null, "Name": "Nal Damyanti Tal" }, "geometry": { "type": "Point", "coordinates": [ 79.5343019, 29.3628882, 0.0 ] } },
{ "type": "Feature", "properties": { "id": null, "Name": "Morning View Point" }, "geometry": { "type": "Point", "coordinates": [ 79.6589547, 29.4508874, 0.0 ] } },
{ "type": "Feature", "properties": { "id": null, "Name": "Tiffin Top" }, "geometry": { "type": "Point", "coordinates": [ 79.4505608, 29.3836288, 0.0 ] } },
{ "type": "Feature", "properties": { "id": null, "Name": "Lover's Point" }, "geometry": { "type": "Point", "coordinates": [ 79.4403205, 29.3870936, 0.0 ] } },
{ "type": "Feature", "properties": { "id": null, "Name": "Aquarium Island Cafe by The Lake Hill - Bhimtal" }, "geometry": { "type": "Point", "coordinates": [ 79.5619244, 29.3423879, 0.0 ] } },
{ "type": "Feature", "properties": { "id": null, "Name": "Ram Tal" }, "geometry": { "type": "Point", "coordinates": [ 79.5320349, 29.3480745, 0.0 ] } },
{ "type": "Feature", "properties": { "id": null, "Name": "Sattal Water Fall" }, "geometry": { "type": "Point", "coordinates": [ 79.519045, 29.349262, 0.0 ] } },
{ "type": "Feature", "properties": { "id": null, "Name": "Bhalugaad Waterfall (Mukteshwar)" }, "geometry": { "type": "Point", "coordinates": [ 79.6324659, 29.4082422, 0.0 ] } },
{ "type": "Feature", "properties": { "id": null, "Name": "Haldwani viewpoint Haidakhan Road" }, "geometry": { "type": "Point", "coordinates": [ 79.5545242, 29.2710736, 0.0 ] } },
{ "type": "Feature", "properties": { "id": null, "Name": "Valley View Point" }, "geometry": { "type": "Point", "coordinates": [ 79.4553901, 29.368648, 0.0 ] } },
{ "type": "Feature", "properties": { "id": null, "Name": "Haldwani view point" }, "geometry": { "type": "Point", "coordinates": [ 79.5465302, 29.3130094, 0.0 ] } },
{ "type": "Feature", "properties": { "id": null, "Name": "Kosi Barrage Ramnagar Dam" }, "geometry": { "type": "Point", "coordinates": [ 79.1327964, 29.3988132, 0.0 ] } },
{ "type": "Feature", "properties": { "id": null, "Name": "Kotabagh Waterfall" }, "geometry": { "type": "Point", "coordinates": [ 79.3188744, 29.4181223, 0.0 ] } },
{ "type": "Feature", "properties": { "id": null, "Name": "Starscapes Experiences Pvt Ltd" }, "geometry": { "type": "Point", "coordinates": [ 79.1472996, 29.4659826, 0.0 ] } },
{ "type": "Feature", "properties": { "id": null, "Name": "Barati Rau Waterfall" }, "geometry": { "type": "Point", "coordinates": [ 79.2554797, 29.3144922, 0.0 ] } },
{ "type": "Feature", "properties": { "id": null, "Name": "Sitabani Conservation Reserve" }, "geometry": { "type": "Point", "coordinates": [ 79.2315008, 29.3558365, 0.0 ] } },
{ "type": "Feature", "properties": { "id": null, "Name": "Kotabagh" }, "geometry": { "type": "Point", "coordinates": [ 79.3000757, 29.3991512, 0.0 ] } },
{ "type": "Feature", "properties": { "id": null, "Name": "The Nature View Resort By Ohana" }, "geometry": { "type": "Point", "coordinates": [ 79.3159698, 29.4005644, 0.0 ] } },
{ "type": "Feature", "properties": { "id": null, "Name": "Corbett Falls" }, "geometry": { "type": "Point", "coordinates": [ 79.3199208, 29.2915401, 0.0 ] } },
{ "type": "Feature", "properties": { "id": null, "Name": "Garjiya Tourism Zone" }, "geometry": { "type": "Point", "coordinates": [ 79.0983125, 29.4668125, 0.0 ] } },
{ "type": "Feature", "properties": { "id": null, "Name": "Flying Sparrow Strawberry Farm" }, "geometry": { "type": "Point", "coordinates": [ 79.0447446, 29.4066012, 0.0 ] } },
{ "type": "Feature", "properties": { "id": null, "Name": "Kosi Barrage Ramnagar Dam" }, "geometry": { "type": "Point", "coordinates": [ 79.1327964, 29.3988132, 0.0 ] } },
{ "type": "Feature", "properties": { "id": null, "Name": "Kosi Ghat" }, "geometry": { "type": "Point", "coordinates": [ 79.5248335, 29.5298144, 0.0 ] } },
{ "type": "Feature", "properties": { "id": null, "Name": "Sunrise viewpoint" }, "geometry": { "type": "Point", "coordinates": [ 79.4686533, 29.3785343, 0.0 ] } },
{ "type": "Feature", "properties": { "id": null, "Name": "Khurpatal Lake View Point" }, "geometry": { "type": "Point", "coordinates": [ 79.4358935, 29.3801227, 0.0 ] } },
{ "type": "Feature", "properties": { "id": null, "Name": "Barati Rau Waterfall" }, "geometry": { "type": "Point", "coordinates": [ 79.2554797, 29.3144922, 0.0 ] } },
{ "type": "Feature", "properties": { "id": null, "Name": "Himalayas View Point" }, "geometry": { "type": "Point", "coordinates": [ 79.3979808, 29.4631699, 0.0 ] } },
{ "type": "Feature", "properties": { "id": null, "Name": "Nainital Lake View Point" }, "geometry": { "type": "Point", "coordinates": [ 79.4557995, 29.3909114, 0.0 ] } },
{ "type": "Feature", "properties": { "id": null, "Name": "Khurpatal View Point" }, "geometry": { "type": "Point", "coordinates": [ 79.429318, 29.3746233, 0.0 ] } },
{ "type": "Feature", "properties": { "id": null, "Name": "Nainital view point" }, "geometry": { "type": "Point", "coordinates": [ 79.4522975, 29.3987476, 0.0 ] } },
{ "type": "Feature", "properties": { "id": null, "Name": "Snow View" }, "geometry": { "type": "Point", "coordinates": [ 79.4605175, 29.3960585, 0.0 ] } },
{ "type": "Feature", "properties": { "id": null, "Name": "Himalaya View Point" }, "geometry": { "type": "Point", "coordinates": [ 79.4502845, 29.4022381, 0.0 ] } },
{ "type": "Feature", "properties": { "id": null, "Name": "AV Valley View Point" }, "geometry": { "type": "Point", "coordinates": [ 79.4955002, 29.3822648, 0.0 ] } },
{ "type": "Feature", "properties": { "id": null, "Name": "View point" }, "geometry": { "type": "Point", "coordinates": [ 79.5338514, 29.3912599, 0.0 ] } },
{ "type": "Feature", "properties": { "id": null, "Name": "Mountain View Point" }, "geometry": { "type": "Point", "coordinates": [ 79.6427988, 29.4749783, 0.0 ] } },
{ "type": "Feature", "properties": { "id": null, "Name": "Woodland water fall nainital" }, "geometry": { "type": "Point", "coordinates": [ 79.4306768, 29.3780029, 0.0 ] } },
{ "type": "Feature", "properties": { "id": null, "Name": "Freaky Waterfall, Ghatgarh" }, "geometry": { "type": "Point", "coordinates": [ 79.379718, 29.3350465, 0.0 ] } },
{ "type": "Feature", "properties": { "id": null, "Name": "Hidden Waterfall" }, "geometry": { "type": "Point", "coordinates": [ 79.4632403, 29.4118665, 0.0 ] } },
{ "type": "Feature", "properties": { "id": null, "Name": "Dhokaney Waterfall" }, "geometry": { "type": "Point", "coordinates": [ 79.5702325, 29.5285926, 0.0 ] } },
{ "type": "Feature", "properties": { "id": null, "Name": "waterfall" }, "geometry": { "type": "Point", "coordinates": [ 79.4051902, 29.3590659, 0.0 ] } },
{ "type": "Feature", "properties": { "id": null, "Name": "Jim Corbett Waterfall" }, "geometry": { "type": "Point", "coordinates": [ 79.3210364, 29.2778249, 0.0 ] } },
{ "type": "Feature", "properties": { "id": null, "Name": "Dunikhal Waterfall" }, "geometry": { "type": "Point", "coordinates": [ 79.472052, 29.4094324, 0.0 ] } },
{ "type": "Feature", "properties": { "id": null, "Name": "Kilbury and Pangot Wildlife and Bird Sanctuary" }, "geometry": { "type": "Point", "coordinates": [ 79.4465006, 29.4183001, 0.0 ] } },
{ "type": "Feature", "properties": { "id": null, "Name": "Naina Devi Himalayan Bird Conservation Reserve" }, "geometry": { "type": "Point", "coordinates": [ 79.4502146, 29.3809816, 0.0 ] } },
{ "type": "Feature", "properties": { "id": null, "Name": "Sitabani Wildlife Reserve" }, "geometry": { "type": "Point", "coordinates": [ 79.260859, 29.46571, 0.0 ] } },
{ "type": "Feature", "properties": { "id": null, "Name": "Sonanadi Wildlife Sanctuary" }, "geometry": { "type": "Point", "coordinates": [ 79.1252069, 29.3948103, 0.0 ] } },
{ "type": "Feature", "properties": { "id": null, "Name": "G B Pant High Altitude Zoo" }, "geometry": { "type": "Point", "coordinates": [ 79.4686432, 29.3807621, 0.0 ] } },
{ "type": "Feature", "properties": { "id": null, "Name": "Nandhaur Wildlife Sanctuary" }, "geometry": { "type": "Point", "coordinates": [ 79.7026697, 29.1304688, 0.0 ] } },
{ "type": "Feature", "properties": { "id": null, "Name": "1__kilbury bird century" }, "geometry": { "type": "Point", "coordinates": [ 79.4375528, 29.423522, 0.0 ] } },
{ "type": "Feature", "properties": { "id": null, "Name": "Lover's Point - Nanda Devi Bird Conservation Reserve" }, "geometry": { "type": "Point", "coordinates": [ 79.4505028, 29.4120569, 0.0 ] } }
]
}
